[
  {
    "name": "AutoEnterprise - Персенківка",
    "lat": 49.80670,
    "lng": 24.01030,
    "operator": "AutoEnterprise",
    "types": ["CCS2", "Type2"]
  },
  {
    "name": "AutoEnterprise - Городоцька 300",
    "lat": 49.80790,
    "lng": 24.00670,
    "operator": "AutoEnterprise",
    "types": ["CCS2", "Type2"]
  },
  {
    "name": "AutoEnterprise - Княгині Ольги 95",
    "lat": 49.82550,
    "lng": 24.01610,
    "operator": "AutoEnterprise",
    "types": ["CCS2", "Type2"]
  },
  {
    "name": "AutoEnterprise - Пасічна 144",
    "lat": 49.83810,
    "lng": 24.01290,
    "operator": "AutoEnterprise",
    "types": ["CCS2", "Type2"]
  },
  {
    "name": "AutoEnterprise - площа Соборна 14",
    "lat": 49.84470,
    "lng": 24.02630,
    "operator": "AutoEnterprise",
    "types": ["CCS2", "Type2"]
  },
  {
    "name": "AutoEnterprise - Стрийська",
    "lat": 49.80750,
    "lng": 24.01840,
    "operator": "AutoEnterprise",
    "types": ["CCS2", "Type2"]
  },
  {
    "name": "AutoEnterprise - Івана Виговського 100",
    "lat": 49.81200,
    "lng": 24.01850,
    "operator": "AutoEnterprise",
    "types": ["CCS2", "Type2"]
  },
  {
    "name": "AutoEnterprise - Кам’янeцька / вул Камянецька",
    "lat": 49.81050,
    "lng": 24.03680,
    "operator": "AutoEnterprise",
    "types": ["CCS2", "Type2"]
  },
  {
    "name": "РИК Авто - Щирецька 36",
    "lat": 49.81340,
    "lng": 24.00060,
    "operator": "РИК Авто",
    "types": ["Type2"]
  },
  {
    "name": "Автозаправка OKKO EV Charger - Чорновола",
    "lat": 49.86170,
    "lng": 24.01950,
    "operator": "OKKO",
    "types": ["CCS2", "Type2"]
  },    
  {
    "name": "WOG EV Charging - Кульпарківська",
    "lat": 49.82220,
    "lng": 23.97390,
    "operator": "WOG",
    "types": ["CCS2", "Type2"]
  },
  {
    "name": "WOG EV Charging - Наукова",
    "lat": 49.80590,
    "lng": 23.98720,
    "operator": "WOG",
    "types": ["CCS2", "Type2"]
  },
  {
    "name": "YASNO E-mobility Station - Lviv",
    "lat": 49.85010,
    "lng": 24.02030,
    "operator": "YASNO",
    "types": ["CCS2", "Type2"]
  },
  {
    "name": "TOKA Fast Charger - Гнатюка 18",
    "lat": 49.82720,
    "lng": 24.00850,
    "operator": "TOKA",
    "types": ["CCS2", "Type2"]
  }
]
